City_ID,City,Lat,Lng,Max Temp,Humidity,Cloudiness,Wind Speed,Country,Date
0,hammerfest,70.6634,23.6821,276.4,70,40,4.63,NO,1696180100
1,howard springs,-12.497,131.047,300.1,79,42,0.53,AU,1696180100
2,shubarkuduk,49.1447,56.4872,289.65,49,82,3.15,KZ,1696180100
3,salinopolis,-0.6136,-47.3561,302.51,69,53,7.53,BR,1696180101
4,west island,-12.1568,96.8225,299.14,73,75,7.72,CC,1696180101
5,port-aux-francais,-49.35,70.2167,279.41,97,100,19.13,TF,1696180101
6,adamstown,-25.066,-130.1015,293.79,82,50,10.95,PN,1696180101
7,cestos city,5.46,-9.5828,299.8,82,78,3.45,LR,1696180101
8,grytviken,-54.2811,-36.5092,278.06,94,65,5.02,GS,1696180102
9,phang nga,8.4509,98.5298,301.17,90,65,1.63,TH,1696180102
10,puerto ayora,-0.7393,-90.3518,304.13,89,99,3.58,EC,1696180102
11,key west,24.5557,-81.7826,305.15,74,0,4.63,US,1696180036
12,argo,37.6333,22.7333,294.7,49,47,1.79,GR,1696180102
13,takoradi,4.8845,-1.7554,298.99,87,37,5.32,GH,1696180103
14,zouerate,22.7187,-12.4521,309.24,12,40,6.9,MR,1696180103
15,kayangel,8.0823,134.7173,300.98,81,49,3.7,PW,1696180103
16,tommot,58.9564,126.2925,278.14,55,84,0.45,RU,1696180103
17,san agustin,20.5333,-103.4667,296.77,57,40,3.09,MX,1696180103
18,port lincoln,-34.7333,135.8667,285.48,79,0,2.27,AU,1696180104
19,taungoo,18.9333,96.4333,296.57,99,99,2.01,MM,1696180104
20,ustka,54.5805,16.8619,286.29,87,75,4.06,PL,1696180104
21,qarauyl,48.9451,79.255,282.52,67,96,1.52,KZ,1696180104
22,bathsheba,13.2167,-59.5167,304.49,79,40,11.83,BB,1696180104
23,tura,25.5198,90.2201,296.87,98,82,1.89,IN,1696180105
24,konarka,19.9,86.1167,301.37,81,100,6.58,IN,1696180105
25,mandalgovi,45.7625,106.2708,284.62,24,100,2.97,MN,1696180105
26,stanley,54.868,-1.6985,290.25,78,20,2.57,GB,1696180105
27,singtam,27.2333,88.5,297.69,87,94,1.11,IN,1696180105
28,waitangi,-43.9535,-176.5597,284.16,90,61,0.89,NZ,1696180106
29,thompson,55.7435,-97.8558,278.81,74,100,2.31,CA,1696180106
30,kerikeri,-35.2268,173.9474,283.15,94,25,2.91,NZ,1696180106
31,kodiak,57.79,-152.4072,281.88,93,100,5.14,US,1696180106
32,bredasdorp,-34.5322,20.0403,286.24,73,0,6.81,ZA,1696180107
33,dudinka,69.4058,86.1778,259.08,99,67,0.89,RU,1696180107
34,puerto natales,-51.7236,-72.4875,274.4,93,100,7.72,CL,1696180107
35,atafu village,-8.5421,-172.5159,301.17,71,56,0.68,TK,1696180108
36,nantucket,41.2835,-70.0995,292.23,83,0,10.8,US,1696180108
37,presidencia roque saenz pena,-26.7852,-60.4388,301.8,20,0,3.56,AR,1696180108
38,al jawf,29.5,38.75,303.88,16,32,3.75,SA,1696180108
39,iqaluit,63.7506,-68.5145,276.87,80,100,1.34,CA,1696180108
40,micheweni,-4.9667,39.8333,297.73,78,7,4.76,TZ,1696180109
41,guerrero negro,27.9769,-114.0611,295.7,59,2,5.91,MX,1696180040
42,kamaishi,39.2667,141.8833,290.22,79,64,3.49,JP,1696180109
43,tazovsky,67.4667,78.7,273.35,88,99,6.59,RU,1696180109
44,tiksi,71.6872,128.8694,265.38,91,56,2.93,RU,1696180109
45,valdivia,-39.8142,-73.2459,289.58,46,100,1.64,CL,1696180110
46,albany,42.6001,-73.9662,297.53,66,0,1.34,US,1696180110
47,auki,-8.7676,160.7034,297.66,88,74,2.99,SB,1696180110
48,corinto,37.9407,22.9573,294.76,48,3,0.97,GR,1696180110
49,tacuarembo,-31.7333,-55.9833,291.44,43,0,2.96,UY,1696180110
50,rybinsk,58.0446,38.8426,287.22,85,80,4.92,RU,1696180111
51,badger,64.8,-147.5333,276.1,76,100,3.09,US,1696179916
52,solnechnyy,50.7214,136.6319,280.39,97,100,3.35,RU,1696180111
53,ribeira grande,38.5167,-28.7,296.37,56,20,3.13,PT,1696180111
54,edinburgh of the seven seas,-37.0676,-12.3116,282.84,62,95,11.99,SH,1696180111
55,formosa do rio preto,-11.0483,-45.1931,312.31,15,0,2.97,BR,1696179847
56,punta arenas,-53.15,-70.9167,275.21,87,75,11.83,CL,1696179904
57,mount gambier,-37.8333,140.7667,277.57,94,0,2.15,AU,1696180112
58,saint-pierre,-21.3393,55.4781,296.97,73,0,1.54,RE,1696180112
59,keflavik,64.0049,-22.5624,283.39,81,0,5.66,IS,1696180112
60,hermanus,-34.4187,19.2345,288.06,73,0,5.78,ZA,1696180113
61,aasiaat,68.7098,-52.8699,270.61,68,2,5.3,GL,1696180113
62,guarapari,-20.6667,-40.4975,296.98,72,81,8.37,BR,1696180113
63,serenje,-13.2325,30.2352,297.98,30,16,1.71,ZM,1696180113
64,utrik,11.2278,169.8474,300.69,77,94,3.8,MH,1696180114
65,jinghong,21.991,100.7341,294.78,99,58,0.67,CN,1696180114
66,maxixe,-23.8597,35.3472,294.61,67,85,8.34,MZ,1696180114
67,ilulissat,69.2167,-51.1,272.16,74,4,1.54,GL,1696180114
68,bilibino,68.0546,166.4372,265.35,87,100,0.39,RU,1696180114
69,kapoeta,4.7717,33.5903,303.62,39,87,4.96,SS,1696180115
70,quellon,-43.1167,-73.6167,280.04,83,100,1.76,CL,1696180115
71,bethel,41.3712,-73.414,297.7,65,0,4.63,US,1696179952
72,laguna,38.421,-121.4238,293.32,71,0,3.09,US,1696180048
73,zahedan,29.4963,60.8629,294.1,18,0,2.06,IR,1696180115
74,cabo san lucas,22.8909,-109.9124,306.76,62,0,5.14,MX,1696180116
75,ust-nera,64.5667,143.2,270.95,62,31,3.42,RU,1696180116
76,estella-lizarra,42.6718,-2.0323,303.3,37,47,1.48,ES,1696180116
77,port mathurin,-19.6833,63.4167,296.44,78,81,8.8,MU,1696180116
78,marka,1.7159,44.7717,298.74,84,26,7.0,SO,1696180116
79,mount isa,-20.7333,139.5,289.02,48,2,0.51,AU,1696179976
80,new norfolk,-42.7826,147.0587,280.77,94,6,1.38,AU,1696180117
81,carnarvon,-24.8667,113.6333,291.95,70,7,7.12,AU,1696180117
82,nampula,-15.1165,39.2666,300.42,41,3,5.06,MZ,1696180117
83,eastham,41.8301,-69.9739,292.56,71,4,5.81,US,1696180117
84,sao joao de pirabas,-0.7747,-47.1772,303.01,65,33,6.16,BR,1696180117
85,yellowknife,62.456,-114.3525,281.16,89,75,7.2,CA,1696180118
86,hit,33.6416,42.8251,302.55,27,74,3.5,IQ,1696180118
87,inirida,3.8653,-67.9239,308.08,47,99,1.54,CO,1696180118
88,port blair,11.6667,92.75,300.13,85,96,5.82,IN,1696180118
89,east london,-33.0153,27.9116,289.94,59,81,4.09,ZA,1696180118
90,uturoa,-16.7333,-151.4333,299.01,79,57,9.36,PF,1696180119
91,blackmans bay,-43.0167,147.3167,280.11,86,6,2.72,AU,1696180119
92,hawaiian paradise park,19.5933,-154.9731,295.88,95,40,1.54,US,1696180119
93,aral,40.5156,81.2636,294.36,19,6,2.62,CN,1696179919
94,aykhal,66.0,111.5,274.86,94,100,5.36,RU,1696180119
95,salahonda,2.1019,-78.7217,300.15,81,94,7.54,CO,1696180120
96,alice springs,-23.7,133.8833,301.9,17,84,4.63,AU,1696180120
97,talnakh,69.4865,88.3972,260.77,91,10,2.35,RU,1696180120
98,pedernales,18.0384,-71.744,303.32,73,97,3.28,DO,1696180120
99,vorgashor,67.5833,63.95,281.14,98,100,6.67,RU,1696180120
100,la sarre,48.8002,-79.1996,294.76,54,41,0.32,CA,1696180121
101,st. john's,47.5649,-52.7093,293.3,61,75,5.66,CA,1696179905
102,eyl,7.9803,49.8164,300.26,76,59,10.65,SO,1696180121
103,mont-dore,-22.2833,166.5833,290.14,67,93,4.56,NC,1696180121
104,quepos,9.4236,-84.1652,303.0,72,92,1.95,CR,1696180121
105,ko pha ngan,9.7578,100.0291,299.06,75,76,7.13,TH,1696180122
106,villa regina,-39.1,-67.0667,298.3,20,100,5.04,AR,1696180122
107,enewetak,11.3474,162.3373,302.14,75,93,6.4,MH,1696180122
108,port-vila,-17.7338,168.3219,292.93,88,100,3.09,VU,1696180122
109,qaqortoq,60.7167,-46.0333,276.41,78,99,2.17,GL,1696180122
110,alofi,-19.0595,-169.9187,295.5,71,99,10.44,NU,1696180123
111,xilin hot,43.9667,116.0333,281.73,40,0,3.06,CN,1696179922
112,weno,7.4515,151.8468,301.12,83,75,2.57,FM,1696180123
113,jining,35.405,116.5814,291.51,56,100,2.63,CN,1696180123
114,antipino,57.1068,65.7576,283.45,86,2,2.83,RU,1696180123
115,puerto baquerizo moreno,-0.9,-89.6,299.7,74,75,7.72,EC,1696180124
116,partenit,44.578,34.3446,293.2,64,94,2.91,UA,1696180124
117,khandyga,62.6667,135.6,276.33,72,99,0.69,RU,1696180124
118,luderitz,-26.6481,15.1594,290.76,68,0,5.57,NA,1696180124
119,fort st. john,56.2499,-120.8529,284.22,44,98,5.55,CA,1696180050
120,carutapera,-1.195,-46.02,304.14,59,64,5.35,BR,1696180125
121,lebu,-37.6167,-73.65,285.86,68,100,3.65,CL,1696179993
122,jamestown,42.097,-79.2353,297.05,65,0,1.34,US,1696180125
123,ilanskiy,56.2358,96.065,273.59,67,81,2.82,RU,1696180125
124,fort mcmurray,56.7268,-111.381,284.11,46,99,3.34,CA,1696180037
125,lysekil,58.2743,11.4358,287.1,82,83,6.65,SE,1696180126
126,sao jose da coroa grande,-8.8978,-35.1478,300.2,62,42,3.99,BR,1696180058
127,sanctuary point,-35.1114,150.629,290.79,75,17,1.9,AU,1696180126
128,invercargill,-46.4,168.35,284.76,94,74,4.14,NZ,1696180126
129,parnera,20.55,72.95,299.47,81,96,2.85,IN,1696180126
130,chartres,48.4167,1.5,298.8,52,54,0.89,FR,1696180127
131,montehermoso,40.0437,-6.3389,306.4,22,10,1.21,ES,1696180127
132,udachny,66.4167,112.4,272.42,95,100,7.12,RU,1696180127
133,kavaratti,10.5669,72.642,301.12,80,95,7.16,IN,1696180127
134,flying fish cove,-10.4217,105.6791,296.97,88,40,5.66,CX,1696180127
135,nova vicosa,-17.8919,-39.3719,299.93,61,37,5.37,BR,1696180128
136,kalmunai,7.4167,81.8167,298.99,85,100,6.22,LK,1696180128
137,namdrik,5.5994,168.1028,301.52,75,87,2.98,MH,1696180128
138,feodosiya,45.0333,35.3833,290.42,53,98,4.83,UA,1696180128
139,narasannapeta,18.4167,84.05,300.62,87,100,4.32,IN,1696180128
140,tanjung pandan,-2.75,107.65,297.47,87,82,2.85,ID,1696180129
141,susuman,62.7833,148.1667,272.03,73,11,1.79,RU,1696180129
142,ed damer,17.5928,33.9592,311.2,12,0,4.05,SD,1696180129
143,karabash,55.4808,60.2157,280.59,87,80,2.27,RU,1696180129
144,zielona gora,51.9355,15.5064,290.46,38,100,2.49,PL,1696180129
145,labrador city,52.9463,-66.9114,284.23,50,65,6.58,CA,1696180130
146,avarua,-21.2078,-159.775,298.18,94,100,2.06,CK,1696180130
147,berdigestyakh,62.0989,126.6992,274.02,74,90,1.7,RU,1696180130
148,alexandria,31.2156,29.9553,299.01,59,100,5.96,EG,1696180130
149,umluj,25.0213,37.2685,303.66,71,3,0.71,SA,1696180130
150,constantia,44.1833,28.65,295.76,56,25,1.72,RO,1696180131
151,saipan,15.1355,145.701,300.54,94,40,3.09,MP,1696180131
152,margaret river,-33.95,115.0667,285.42,65,96,11.79,AU,1696180131
153,tual,-5.6667,132.75,299.11,89,100,3.25,ID,1696180131
154,villa ojo de agua,-29.5,-63.6938,298.15,25,0,6.27,AR,1696180131
155,kisangani,0.5167,25.2,299.14,75,59,1.34,CD,1696180132
156,zhosaly,45.4878,64.0781,290.68,38,81,4.29,KZ,1696180132
157,dunedin,-45.8742,170.5036,287.13,64,98,6.24,NZ,1696180132
158,moranbah,-22.0016,148.0466,289.1,96,0,3.38,AU,1696180132
159,sinabang,2.4803,96.3801,299.38,86,83,3.92,ID,1696180132
160,sinop,41.7711,34.8709,287.99,92,100,1.42,TR,1696180040
161,arawa,-6.2132,155.5367,297.74,92,89,1.0,PG,1696180133
162,vila franca do campo,37.7167,-25.4333,294.38,99,94,3.75,PT,1696180133
163,ust'-ilimsk,58.0006,102.6619,274.51,74,97,4.47,RU,1696180133
164,ksar el boukhari,35.8889,2.7491,302.22,25,0,1.72,DZ,1696180133
165,saimbeyli,37.9863,36.0906,288.34,95,99,3.05,TR,1696180133
166,holualoa,19.6228,-155.9522,296.06,84,20,3.09,US,1696180134
167,biltine,14.5333,20.9167,307.39,30,82,4.71,TD,1696180134
168,crane,31.3974,-102.3501,301.04,49,92,9.28,US,1696180134
169,akureyri,65.6835,-18.0878,279.97,85,100,2.22,IS,1696180134
170,ivdel',60.6911,60.4206,285.39,72,98,3.38,RU,1696180134
171,gutao,37.2025,112.1781,286.44,55,97,1.88,CN,1696180135
172,whitehorse,60.7161,-135.0538,277.21,90,100,8.94,CA,1696180135
173,ushuaia,-54.8,-68.3,274.96,93,75,6.69,AR,1696180135
174,pariaman,-0.619,100.12,300.18,88,85,1.46,ID,1696180135
175,dharchula,29.85,80.5333,292.74,84,0,2.16,IN,1696180136
176,hamilton,39.1834,-84.5333,301.48,58,20,4.12,US,1696180067
177,dryden,49.7833,-92.7503,287.31,100,100,1.54,CA,1696180136
178,marakkanam,12.2,79.95,301.37,78,100,7.43,IN,1696180136
179,afaahiti,-17.75,-149.2833,298.08,85,39,8.31,PF,1696180137
180,vilyuchinsk,52.9306,158.4028,280.33,82,99,0.53,RU,1696180137
181,kurumkan,54.3,110.3,283.22,66,99,1.79,RU,1696180137
182,bryne,58.7354,5.6477,287.58,90,100,5.66,NO,1696180137
183,waiuku,-37.25,174.75,288.29,89,62,4.73,NZ,1696180090
184,prado,-17.3411,-39.2208,298.86,63,37,4.36,BR,1696180138
185,georgetown,5.4112,100.3354,302.11,79,20,1.54,MY,1696180138
186,kratie,12.4881,106.0188,297.39,96,83,0.37,KH,1696180138
187,papatowai,-46.5619,169.4708,282.98,82,100,3.3,NZ,1696180138
188,oranjemund,-28.55,16.4333,289.81,68,0,4.16,NA,1696180138
189,mana,5.6592,-53.7767,305.64,56,88,5.46,GF,1696180139
190,zwedru,6.0667,-8.1281,299.5,93,84,1.58,LR,1696180139
191,isafjordur,66.0755,-23.124,279.93,91,100,6.11,IS,1696180139
192,anadyr,64.75,177.4833,269.43,93,0,1.0,RU,1696180139
193,palikir - national government center,6.9248,158.1611,296.56,94,100,1.54,FM,1696180139
194,college,64.8569,-147.8028,276.14,73,100,3.09,US,1696180140
195,nar'yan-mar,67.6713,53.087,283.77,98,100,4.02,RU,1696180140
196,zigong,29.3416,104.7769,293.41,96,100,1.61,CN,1696179954
197,cambria,35.5641,-121.0808,292.47,92,19,1.34,US,1696180140
198,yuncheng,35.0231,110.9928,287.22,85,100,1.82,CN,1696180140
199,olenino,56.2092,33.4889,283.61,85,100,3.86,RU,1696180141
200,gafanha da nazare,40.6362,-8.7134,300.94,53,21,2.37,PT,1696180080
201,midvagur,62.0511,-7.1939,284.61,93,100,7.2,FO,1696180141
202,port elizabeth,-33.918,25.5701,288.32,79,34,1.79,ZA,1696180141
203,klyuchi,52.2667,79.1667,280.34,83,0,2.3,RU,1696180141
204,laminusa,5.5549,120.9136,302.15,80,100,6.63,PH,1696180142
205,bereznik,62.8551,42.7072,284.28,83,97,4.12,RU,1696180142
206,tofol,5.3248,163.0078,301.51,74,26,3.22,FM,1696180142
207,bonthe,7.5264,-12.505,301.39,77,100,4.01,SL,1696180142
208,rong kwang,18.339,100.3174,297.03,98,95,0.59,TH,1696180143
209,tahe,52.3333,124.7333,277.45,80,82,1.09,CN,1696179922
210,lalpur,22.2,69.9667,299.42,67,1,3.58,IN,1696180143
211,yamba,-5.9,22.3,299.71,65,71,1.63,CD,1696180143
212,tolanaro,-25.0319,46.9987,296.18,83,5,1.16,MG,1696180143
213,sant'antioco,39.0664,8.4522,296.02,79,4,2.11,IT,1696180144
214,ulaangom,49.9811,92.0667,281.91,67,100,3.4,MN,1696180144
215,hafnarfjordur,64.0671,-21.9377,283.36,68,100,3.81,IS,1696180144
216,hami,42.8,93.45,290.05,35,59,4.05,CN,1696180144
217,christchurch,-43.5333,172.6333,288.68,61,75,4.63,NZ,1696180145
218,kurmuk,10.55,34.2833,297.13,84,65,1.66,SD,1696180145
219,ta`u,-14.2336,-169.5144,299.79,81,25,8.65,AS,1696180145
220,san luis de la loma,17.2706,-100.8939,304.35,69,26,2.58,MX,1696180145
221,yacimiento rio turbio,-51.5732,-72.3508,270.81,93,100,7.72,AR,1696180146
222,mugia,43.1041,-9.2179,296.43,77,69,2.24,ES,1696180146
223,mili,6.0815,171.735,300.64,77,93,1.91,MH,1696180146
224,taro,-8.3862,115.28,294.18,89,65,0.23,ID,1696180146
225,pekan,3.4836,103.3996,299.4,88,96,1.4,MY,1696180146
226,iskateley,67.6803,53.1512,283.72,98,100,4.02,RU,1696180147
227,sao lourenco do sul,-31.3653,-51.9783,289.41,60,0,3.17,BR,1696180138
228,galliano,29.4422,-90.2992,304.15,58,40,5.66,US,1696180147
229,el calafate,-50.3408,-72.2768,277.85,53,7,5.5,AR,1696180147
230,ndele,8.4109,20.6473,297.91,87,76,0.75,CF,1696180147
231,alesund,62.4723,6.1549,286.43,83,20,5.14,NO,1696180148
232,saint-philippe,-21.3585,55.7679,296.92,74,6,2.9,RE,1696180148
233,mermoz boabab,14.7065,-17.4758,303.46,77,89,3.21,SN,1696180148
234,kirensk,57.7853,108.1119,274.83,76,43,4.47,RU,1696180148
235,nova sintra,14.8667,-24.7167,297.51,76,58,4.52,CV,1696180069
236,wailua homesteads,22.0669,-159.378,297.59,88,75,5.66,US,1696180149
237,nelson bay,-32.7167,152.15,292.59,80,68,4.92,AU,1696180149
238,paracuru,-3.41,-39.0306,300.99,52,74,7.41,BR,1696180149
239,mirny,62.5353,113.9611,279.79,74,100,3.52,RU,1696180149
240,al quwayrah,29.8004,35.3116,299.15,49,64,1.55,JO,1696180149
241,ewo,-0.8725,14.8206,298.73,84,86,1.19,CG,1696180150
242,kudahuvadhoo,2.6708,72.8944,300.92,77,100,3.8,MV,1696180150
243,tarinkot,32.6268,65.8733,289.55,17,0,0.86,AF,1696180150
244,deridder,30.8463,-93.289,306.13,40,0,2.06,US,1696180150
245,bealanana,-14.55,48.7333,291.74,83,58,1.03,MG,1696180150
246,ulladulla,-35.35,150.4667,287.09,71,29,1.84,AU,1696180151
247,masina,-4.3836,15.3914,308.34,36,20,3.09,CD,1696180151
248,nemuro,43.3236,145.575,288.85,84,82,3.52,JP,1696180151
249,balkanabat,39.5108,54.3671,296.53,19,0,1.83,TM,1696180151
250,luorong,24.4058,109.6086,298.85,87,41,1.52,CN,1696180152
251,patnanungan,14.7833,122.1833,301.3,81,100,2.84,PH,1696180152
252,geraldton,-28.7667,114.6,291.38,72,40,5.66,AU,1696180016
253,ephraim,39.3597,-111.5863,286.93,54,3,4.64,US,1696180152
254,prince rupert,54.3161,-130.3201,282.2,100,100,3.09,CA,1696180152
255,pangody,65.85,74.4859,275.76,100,100,3.32,RU,1696180152
256,walvis bay,-22.9575,14.5053,285.42,75,32,5.64,NA,1696180153
257,fayzabad,37.1166,70.58,289.22,42,61,0.79,AF,1696180153
258,blagoevgrad,42.0167,23.1,290.85,60,35,3.75,BG,1696180153
259,island harbour,50.724,-1.2758,293.23,89,98,1.34,GB,1696180153
260,tsafe,11.9553,6.9223,300.05,68,76,2.8,NG,1696180154
261,ancud,-41.8697,-73.8203,281.61,91,100,1.38,CL,1696179990
262,otjimbingwe,-22.35,16.1333,304.3,9,0,6.2,NA,1696180154
263,kapuskasing,49.4169,-82.4331,293.69,53,83,2.16,CA,1696180154
264,pisco,-13.7,-76.2167,294.18,78,0,4.12,PE,1696180155
265,timmins,48.4669,-81.3331,294.69,58,62,1.88,CA,1696180155
266,chebarkul',54.9749,60.3633,280.68,86,5,2.98,RU,1696180155
267,queenstown,-31.8976,26.8753,284.87,61,0,5.74,ZA,1696180155
268,kropachevo,55.0112,57.9896,280.8,77,39,2.44,RU,1696180155
269,glowno,51.9646,19.7157,289.26,99,99,3.05,PL,1696180156
270,lerma,42.0261,-3.7598,303.46,18,31,1.78,ES,1696180156
271,tsiombe,-25.3,45.4833,296.1,69,3,2.28,MG,1696180156
272,brodosqui,-20.9914,-47.6586,300.14,36,72,5.13,BR,1696180156
273,petropavlovsk-kamchatsky,53.0452,158.6483,279.51,79,93,1.79,RU,1696180156
274,grande prairie,55.1667,-118.8027,275.25,100,75,1.03,CA,1696179983
275,catacocha,-4.0667,-79.6333,295.71,35,59,1.59,EC,1696180157
276,prince george,53.9166,-122.753,277.84,87,100,4.63,CA,1696179902
277,olonkinbyen,70.9221,-8.7187,273.17,80,100,4.51,SJ,1696180158
278,huautla de jimenez,18.1315,-96.8409,295.91,53,45,1.98,MX,1696180158
279,bavly,54.393,53.2602,287.08,55,13,3.29,RU,1696180158
280,susanville,40.4163,-120.653,283.61,64,75,1.54,US,1696179928
281,sovetskiy,61.3614,63.5842,283.65,68,72,5.36,RU,1696179950
282,grand-lahou,5.1367,-5.0242,299.65,82,80,4.78,CI,1696180159
283,iacu,-12.7672,-40.2117,302.13,56,80,3.8,BR,1696180159
284,bamboo flat,11.7,92.7167,300.15,85,97,5.78,IN,1696180159
285,vila velha,-20.3297,-40.2925,298.12,79,0,4.63,BR,1696180159
286,hirara,24.8,125.2833,301.24,76,66,9.81,JP,1696180159
287,san patricio,28.017,-97.5169,305.07,63,28,5.94,US,1696180160
288,tanout,14.9709,8.8879,302.56,43,45,7.95,NE,1696180160
289,ha'il,27.5219,41.6907,303.31,14,36,4.1,SA,1696180160
290,timimoun,29.2639,0.231,307.36,14,0,8.75,DZ,1696180160
291,kailua-kona,19.6406,-155.9956,298.13,84,20,3.09,US,1696180160
292,nyurba,63.2842,118.3319,279.28,81,99,0.45,RU,1696180161
293,saudarkrokur,65.7461,-19.6394,281.66,72,99,1.53,IS,1696180161
294,kapa'a,22.0752,-159.319,298.33,88,75,5.66,US,1696180161
295,goronyo,13.4423,5.6763,307.34,37,12,4.46,NG,1696180161
296,longyearbyen,78.2186,15.6401,270.06,59,75,8.23,SJ,1696180162
297,fale old settlement,-9.3852,-171.2468,300.91,76,25,2.81,TK,1696180162
298,al ghayzah,16.2079,52.176,300.47,79,61,2.94,YE,1696180162
299,coquimbo,-29.9533,-71.3436,287.74,77,94,2.42,CL,1696180162
300,turpan,42.9333,89.1667,297.0,26,6,1.8,CN,1696180162
301,pimentel,-6.8367,-79.9342,300.31,54,0,8.23,PE,1696180163
302,hithadhoo,-0.6,73.0833,301.19,72,76,6.43,MV,1696180163
303,xichang,27.8964,102.2634,292.43,89,23,1.0,CN,1696180163
304,arraial do cabo,-22.9661,-42.0278,295.07,88,75,4.63,BR,1696180124
305,gangkofen,48.4333,12.5667,291.02,75,5,0.6,DE,1696180164
306,santa ana de yacuma,-13.75,-65.4333,309.16,38,90,2.02,BO,1696180164
307,kununurra,-15.7667,128.7333,297.14,78,27,2.57,AU,1696180164
308,revda,56.801,59.9303,281.24,83,37,2.62,RU,1696180164
309,torghay,49.6339,63.4981,288.53,48,93,4.92,KZ,1696180164
310,haiku-pauwela,20.9219,-156.3051,298.73,77,20,5.36,US,1696180164
311,codrington,-38.2667,141.9667,278.2,92,0,3.64,AU,1696180165
312,chonchi,-42.6128,-73.8092,280.44,98,100,1.07,CL,1696180165
313,kertih,4.5141,103.4483,299.01,87,81,1.84,MY,1696180165
314,fuling,29.7022,107.3919,295.59,91,81,0.94,CN,1696180165
315,taltal,-25.4,-70.4833,291.56,67,23,2.99,CL,1696180166
316,le port,-20.9373,55.2919,297.15,88,12,1.22,RE,1696180166
317,puerto leguizamo,-0.1934,-74.7819,303.21,75,87,0.7,CO,1696180166
318,lihue,21.9789,-159.3672,297.92,88,75,5.66,US,1696180166
319,yeppoon,-23.1333,150.7333,290.03,77,0,3.03,AU,1696180167
320,prince albert,53.2001,-105.7677,281.12,93,100,4.12,CA,1696180080
321,fortuna,40.5982,-124.1573,287.03,91,0,3.6,US,1696180167
322,isangel,-19.55,169.2667,294.55,70,84,8.7,VU,1696180167
323,nuuk,64.1835,-51.7216,275.49,80,75,4.63,GL,1696180167
324,takehara,34.3383,132.9167,290.77,74,0,3.41,JP,1696180168
325,fiambala,-27.6871,-67.6149,300.63,13,16,5.03,AR,1696180168
326,constitucion,-35.3333,-72.4167,287.37,70,91,3.69,CL,1696179992
327,teguise,29.0605,-13.564,299.27,61,0,1.03,ES,1696180168
328,scarborough,54.2797,-0.4044,291.99,88,100,1.34,GB,1696180008
329,celestun,20.8667,-90.4,305.05,61,89,0.51,MX,1696180168
330,igarka,67.4667,86.5833,268.63,69,2,1.43,RU,1696180169
331,newman,37.3138,-121.0208,291.01,50,53,1.34,US,1696180169
332,kruisfontein,-34.0033,24.7314,286.97,67,68,5.59,ZA,1696180169
333,port alfred,-33.5906,26.891,288.25,84,64,5.6,ZA,1696180169
334,tazacorte,28.629,-17.9293,301.01,78,0,3.09,ES,1696180170
335,likiep,9.8251,169.3107,300.47,80,98,5.3,MH,1696180170
336,karatas,36.582,35.3701,297.23,68,10,6.08,TR,1696180173
337,pacific grove,36.6177,-121.9166,290.03,84,75,1.54,US,1696180111
338,altamira,-3.2033,-52.2064,314.17,22,48,1.53,BR,1696180173
339,luza,60.6308,47.2512,284.55,93,100,4.1,RU,1696180174
340,galle,6.0367,80.217,298.97,86,90,3.53,LK,1696180174
341,acarau,-2.8856,-40.12,304.23,55,40,9.65,BR,1696180079
342,ashland,40.8167,-82.2665,297.68,68,0,1.97,US,1696179901
343,santana,-0.0583,-51.1817,307.25,55,20,3.6,BR,1696180174
344,ouadda,8.0777,22.4007,297.5,82,84,0.17,CF,1696180175
345,kirakira,-10.4544,161.9205,298.96,85,91,4.7,SB,1696180175
346,olyokminsk,60.3736,120.4264,278.1,91,48,1.29,RU,1696180175
347,banda aceh,5.5577,95.3222,299.67,83,13,4.41,ID,1696180175
348,tartouss,34.889,35.8866,297.6,72,81,8.77,SY,1696180175
349,brokopondo,4.75,-55.1667,306.93,39,100,0.88,SR,1696180176
350,techiman,7.5862,-1.9414,299.51,86,62,0.4,GH,1696180176
351,ksawerow,51.6829,19.4028,288.87,72,20,1.54,PL,1696180176
352,isla vista,34.4133,-119.861,293.05,72,75,2.06,US,1696180176
353,camiri,-20.05,-63.5167,304.57,24,14,3.39,BO,1696180177
354,rupert,42.6191,-113.6772,281.03,93,100,3.09,US,1696180177
355,amursk,50.2261,136.8994,282.03,89,100,5.77,RU,1696180177
356,papao,-17.75,-149.55,298.97,82,6,9.26,PF,1696180177
357,nahiyat al fuhud,30.9697,46.7228,306.98,17,0,4.24,IQ,1696180177
358,haverfordwest,51.8017,-4.9691,289.92,100,99,3.18,GB,1696180178
359,bodo,67.28,14.405,281.17,88,40,1.54,NO,1696180178
360,vilyuysk,63.7553,121.6247,280.37,82,99,0.89,RU,1696180178
361,otok,45.1467,18.8839,292.17,44,32,2.7,HR,1696180178
362,abadan,30.3392,48.3043,307.37,15,0,4.49,IR,1696180178
363,horta,38.5333,-28.6333,295.95,67,20,3.13,PT,1696180179
364,sergeyevka,53.88,67.4158,285.69,61,84,2.32,KZ,1696180179
365,borkum,53.5809,6.6915,293.68,85,100,7.24,DE,1696180179
366,conde,-7.2597,-34.9075,302.85,54,20,7.2,BR,1696180179
367,norilsk,69.3535,88.2027,260.66,91,11,2.2,RU,1696180180
368,juan de acosta,10.8281,-75.0334,306.12,60,100,0.83,CO,1696180180
369,harar,9.3094,42.1258,292.45,40,45,2.63,ET,1696180180
370,chilca,-12.5211,-76.7372,292.67,80,54,3.05,PE,1696180180
371,gadzhiyevo,69.2551,33.3362,279.48,78,97,5.12,RU,1696180180
372,valday,57.9747,33.2525,286.5,71,39,4.92,RU,1696180181
373,caleta de carquin,-11.0925,-77.6267,294.31,75,70,4.78,PE,1696180181
374,regeneracao,-6.2378,-42.6883,315.2,13,37,1.97,BR,1696180181
375,mahdia,35.5047,11.0622,299.12,64,0,3.67,TN,1696180181
376,kamakwie,9.5,-12.2333,303.08,82,100,0.32,SL,1696180181
377,yamaga,33.0167,130.6833,289.03,67,50,2.57,JP,1696180181
378,neryungri,56.6709,124.6491,274.4,75,85,0.8,RU,1696180182
379,genhe,50.7833,121.5167,275.91,80,14,0.23,CN,1696179923
380,sitka,57.0531,-135.33,285.09,82,100,4.63,US,1696180182
381,sao felix do xingu,-6.6447,-51.995,314.02,16,26,2.08,BR,1696179976
382,kavieng,-2.5744,150.7967,300.07,83,65,2.18,PG,1696180183
383,spring creek,40.7266,-115.5859,282.49,66,97,2.65,US,1696180183
384,sharypovo,55.5403,89.2008,272.73,80,72,1.34,RU,1696180183
385,okhotsk,59.3833,143.3,280.44,77,100,1.48,RU,1696180183
386,hailar,49.2,119.7,279.89,62,26,1.85,CN,1696180184
387,san matias,-16.3667,-58.4,313.53,24,72,2.35,BO,1696180184
388,brioude,45.1667,3.4167,296.19,45,9,1.38,FR,1696180184
389,petropavlovka,50.6114,105.3196,280.74,75,100,3.72,RU,1696180184
390,sogndal,61.2283,7.1003,283.36,76,100,2.06,NO,1696180184
391,nakamura,32.9833,132.9333,288.4,81,28,2.24,JP,1696180185
392,selkirk,50.1436,-96.8845,294.31,90,100,1.34,CA,1696180185
393,rongelap,11.1635,166.8941,301.1,79,100,6.07,MH,1696180185
394,ambon,-3.6954,128.1814,300.3,95,20,2.57,ID,1696180185
395,callaway,30.153,-85.5699,303.18,57,75,6.17,US,1696180185
396,amga,60.8953,131.9608,278.7,60,99,1.34,RU,1696180186
397,cidreira,-30.1811,-50.2056,290.09,56,57,5.12,BR,1696180186
398,nahariyya,33.0059,35.0941,300.92,56,100,0.89,IL,1696180186
399,mozarlandia,-14.7447,-50.5706,312.95,21,79,2.14,BR,1696180186
400,gus'-khrustal'nyy,55.6111,40.6519,285.52,84,100,2.08,RU,1696180186
401,shimoda,34.6667,138.95,294.87,77,82,2.57,JP,1696180187
402,kyzyl,51.7,94.45,279.54,73,95,2.78,RU,1696180187
403,kismayo,-0.3582,42.5454,298.82,76,24,6.22,SO,1696180187
404,brusyliv,50.2845,29.5263,286.22,57,90,3.62,UA,1696180187
405,vega de alatorre,20.0333,-96.6333,304.52,60,52,4.36,MX,1696180187
406,port douglas,-16.4833,145.4667,295.85,78,67,4.38,AU,1696180188
407,sheridan,44.8333,-106.9173,285.36,75,100,6.17,US,1696179923
408,berezovo,63.9381,65.0419,281.46,87,86,6.26,RU,1696180188
409,aioun,16.6614,-9.6149,312.55,8,59,2.91,MR,1696180188
410,rawson,-43.3002,-65.1023,293.83,28,100,4.03,AR,1696180188
411,ola,59.5833,151.2833,277.82,88,100,0.51,RU,1696180189
412,bay city,43.5945,-83.8889,298.21,67,0,2.57,US,1696179931
413,novyy urgal,51.0736,132.5642,279.81,89,97,1.81,RU,1696180189
414,ipameri,-17.7219,-48.1597,305.92,34,84,3.43,BR,1696180189
415,san antonio de pale,-1.4014,5.6325,298.57,82,76,6.11,GQ,1696180190
416,gaalkacyo,6.7697,47.4308,305.05,42,97,2.8,SO,1696180190
417,uyovu,-3.2833,31.5258,298.59,52,53,3.38,TZ,1696180190
418,envira,-7.3,-70.2167,301.58,78,100,1.31,BR,1696180190
419,kushk,33.2957,61.9522,291.33,18,0,3.83,AF,1696180190
420,bullhead city,35.1478,-114.5683,295.94,38,0,4.12,US,1696180191
421,lata,40.1629,-8.3327,306.44,33,10,2.28,PT,1696180191
422,santo antonio do ica,-3.1022,-67.9397,309.69,41,100,0.4,BR,1696180191
423,dolores,-36.3132,-57.6792,290.65,42,0,2.86,AR,1696180191
424,mersa matruh,31.3525,27.2453,297.92,62,75,5.98,EG,1696180191
425,mar del plata,-38.0023,-57.5575,285.66,81,4,1.34,AR,1696180083
426,santa ana,33.7456,-117.8678,292.71,73,75,2.06,US,1696179504
427,katsuren-haebaru,26.3369,127.8719,301.58,83,20,4.12,JP,1696180192
428,wenling,28.3669,121.36,293.56,76,4,4.27,CN,1696180192
429,murun-kuren,49.6342,100.1625,278.87,79,100,2.18,MN,1696180096
430,waingapu,-9.6567,120.2641,297.56,83,45,1.89,ID,1696180193
431,kidal,18.4411,1.4078,312.0,15,14,5.7,ML,1696180193
432,lethbridge,49.7,-112.8186,279.62,93,100,1.54,CA,1696180153
433,athens,37.9795,23.7162,300.18,42,20,2.06,GR,1696179362
434,jati,24.3539,68.2671,303.1,36,91,3.79,PK,1696180193
435,saa,4.3667,11.45,296.29,95,85,2.4,CM,1696180194
436,howrah,22.5892,88.3103,301.15,89,75,3.09,IN,1696180194
437,sisimiut,66.9395,-53.6735,275.67,64,99,1.51,GL,1696180194
438,mouila,-1.8685,11.0559,298.99,87,88,1.22,GA,1696180194
439,carapegua,-25.8,-57.2333,301.4,28,0,3.33,PY,1696180194
440,vorkuta,67.5,64.0,281.34,98,100,6.71,RU,1696180195
441,pemangkat,1.1667,108.9667,298.69,80,99,2.74,ID,1696180195
442,coahuayana de hidalgo,18.7,-103.6583,306.06,62,33,1.78,MX,1696180195
443,remire-montjoly,4.9167,-52.2667,306.17,58,75,4.63,GF,1696180195
444,fort bragg,35.139,-79.006,299.06,61,20,2.68,US,1696180195
445,aldinga beach,-35.2793,138.4604,287.96,71,0,2.61,AU,1696180196
446,port saint john's,-31.6229,29.5448,290.66,62,64,3.15,ZA,1696180196
447,irtyshsk,53.3333,75.4572,280.98,41,6,2.93,KZ,1696180196
448,kingston,17.997,-76.7936,307.17,70,23,0.89,JM,1696180041
449,nangwa,-4.4667,35.45,293.37,39,19,2.5,TZ,1696180197
450,nagqu,31.5,92.0,277.33,93,84,2.37,CN,1696180197
451,jolo,6.05,121.0167,300.48,84,100,3.78,PH,1696180197
452,aripuana,-9.1667,-60.6333,311.94,27,66,1.0,BR,1696180098
453,chapaev,50.2,51.1667,288.67,49,11,3.16,KZ,1696180197
454,kilindoni,-7.9139,39.6668,298.31,79,1,5.26,TZ,1696180198
455,bellampalli,19.0558,79.493,298.18,90,100,2.21,IN,1696180198
456,happy valley-goose bay,53.3168,-60.3315,286.17,46,93,6.87,CA,1696180198
457,murashi,59.3999,48.9615,285.92,91,100,3.53,RU,1696180198
458,boende,-0.2167,20.8667,299.55,77,86,1.07,CD,1696180198
459,kangding,30.0513,101.9603,287.23,93,87,1.2,CN,1696180199
460,hilo,19.7297,-155.09,298.31,93,40,1.54,US,1696180199
461,reggane,26.7158,0.1714,311.83,11,0,4.52,DZ,1696180199
462,sungjibaegam,41.2428,128.7989,273.02,84,3,2.56,KP,1696180200
463,oodweyne,9.4092,45.064,302.0,38,34,6.78,SO,1696180201
464,sandnessjoen,66.0217,12.6316,280.21,81,75,1.03,NO,1696180201
465,ad dilam,23.9915,47.1627,304.46,15,0,4.8,SA,1696180201
466,chigorodo,7.6664,-76.6811,302.53,85,93,2.26,CO,1696180201
467,nizhneangarsk,55.7833,109.55,278.32,78,100,4.39,RU,1696180202
468,puerto aysen,-45.4,-72.7,282.04,83,91,2.3,CL,1696180202
469,daru,-9.0763,143.2092,297.81,89,100,6.76,PG,1696180202
470,brigantine,39.4101,-74.3646,297.61,69,0,3.09,US,1696179960
471,skiathos,39.1623,23.4909,296.47,64,0,0.51,GR,1696180203
472,praia da vitoria,38.7333,-27.0667,296.35,66,6,4.15,PT,1696180203
473,morondava,-20.2833,44.2833,299.34,80,3,7.88,MG,1696180039
474,pitimbu,-7.4706,-34.8086,303.48,61,34,4.9,BR,1696180203
475,mehran,33.1222,46.1646,303.19,22,8,3.33,IR,1696180204
476,yorkton,51.2167,-102.4677,285.06,94,100,3.09,CA,1696180204
477,bata,1.8639,9.7658,299.26,88,77,5.44,GQ,1696180204
478,mejit,10.2753,170.8646,300.44,80,100,4.92,MH,1696180204
479,kelkit,40.1298,39.4361,285.45,81,100,1.57,TR,1696180205
480,el granada,37.5027,-122.4694,292.97,77,75,1.54,US,1696180205
481,tadine,-21.55,167.8833,293.73,64,100,8.0,NC,1696180206
482,zhongshu,24.5167,103.7667,289.96,97,52,0.89,CN,1696180206
483,jalai nur,49.45,117.7,281.56,55,3,1.85,CN,1696179923
484,kenai,60.5544,-151.2583,280.45,93,100,4.63,US,1696180017
485,kalix,65.853,23.1565,283.41,91,83,1.16,SE,1696180206
486,camarinas,43.1311,-9.1817,296.44,76,71,1.67,ES,1696180207
487,shingu,33.7333,135.9833,290.96,83,16,3.14,JP,1696180207
488,antofagasta,-23.65,-70.4,290.75,67,19,3.58,CL,1696179929
489,magadan,59.5667,150.8,277.49,86,100,0.45,RU,1696180207
490,ulety,51.3572,112.4849,279.26,72,51,1.34,RU,1696180208
491,las veredas,23.1388,-109.7075,306.56,51,20,3.09,MX,1696180208
492,lao cai,22.4833,103.95,297.48,97,62,0.22,VN,1696180208
493,sabzevar,36.2126,57.6819,295.19,19,36,1.08,IR,1696180208
494,harper,4.375,-7.7169,299.02,86,57,5.07,LR,1696180208
495,bubaque,11.2833,-15.8333,301.47,78,100,3.25,GW,1696180209
496,olinda,-8.0089,-34.8553,302.0,58,40,6.17,BR,1696180209
497,luanda,-8.8368,13.2343,296.36,84,85,5.42,AO,1696180165
498,richards bay,-28.783,32.0377,291.3,64,100,3.75,ZA,1696180209
499,challapata,-18.9,-66.7667,290.89,21,19,4.95,BO,1696180209
500,velingara,13.15,-14.1167,306.9,58,98,1.3,SN,1696180210
501,ebstorf,53.0279,10.4184,291.16,82,100,1.03,DE,1696180210
502,oppdal,62.5943,9.6912,280.02,87,99,1.37,NO,1696180210
503,dolores hidalgo cuna de la independencia nacional,21.1561,-100.9308,296.36,39,27,2.71,MX,1696180210
504,al fuwayliq,26.4432,43.2534,303.12,14,0,4.58,SA,1696180210
505,bikenibeu village,1.3673,173.1241,301.47,75,6,3.36,KI,1696180211
506,narvik,68.4384,17.4272,280.58,87,97,2.5,NO,1696180211
507,al khawr,25.7667,51.3167,303.22,51,0,3.99,QA,1696180211
508,evora,38.5667,-7.9,305.0,18,24,2.33,PT,1696180211
509,laibin,23.7,109.2667,300.16,80,24,0.99,CN,1696180212
510,al kut,32.5147,45.819,305.44,18,3,3.77,IQ,1696180212
511,sao vicente,-23.9631,-46.3919,300.25,26,100,1.79,BR,1696180212
512,itagiba,-14.2836,-39.8428,301.76,54,96,2.22,BR,1696180212
513,west point,33.6076,-88.6503,303.77,45,40,3.6,US,1696180212
514,borogontsy,62.6683,131.1683,274.98,53,100,2.24,RU,1696180213
515,avra valley,32.4379,-111.3154,303.33,21,0,5.66,US,1696180213
516,al burayqah,30.4062,19.5739,297.57,67,0,6.12,LY,1696180213
517,la passe,45.5549,-0.8967,304.28,49,31,0.91,FR,1696180213
518,chinde,26.8418,88.0763,292.29,81,90,1.81,NP,1696180214
519,n'dalatando,-9.2978,14.9116,298.51,68,71,2.08,AO,1696180214
520,moyynkum,44.2914,72.9469,296.84,28,100,0.66,KZ,1696180214
521,lompoc,34.6391,-120.4579,291.92,72,0,1.34,US,1696180116
522,karratha,-20.7377,116.8463,298.7,32,0,7.28,AU,1696180214
523,barra do corda,-5.5,-45.25,314.73,18,47,2.14,BR,1696180215
524,warrnambool,-38.3833,142.4833,279.56,88,0,4.24,AU,1696180215
525,turaif,31.6725,38.6637,300.02,31,90,5.62,SA,1696180215
526,jackson,42.4165,-122.8345,284.03,84,0,0.45,US,1696180215
527,stettler,52.3168,-112.7186,281.76,67,50,2.6,CA,1696180216
528,linghai,41.1653,121.3667,286.81,54,0,1.66,CN,1696180216
529,kamina,-8.7386,24.9906,298.8,51,27,3.19,CD,1696180216
530,misliyah,17.4599,42.5572,304.89,57,0,2.75,SA,1696180216
531,axim,4.8699,-2.2405,299.33,85,41,5.02,GH,1696180216
532,at taj,24.2049,23.2857,302.45,23,98,5.99,LY,1696180217
533,kaltan,53.5347,87.2457,272.64,69,5,0.66,RU,1696180217
534,newport,51.5877,-2.9984,293.53,89,97,3.79,GB,1696180057
535,altay,47.8667,88.1167,281.33,60,33,2.53,CN,1696179919
536,ouricuri,-7.8825,-40.0817,307.91,19,14,3.15,BR,1696179976
537,berezovyy,51.6667,135.7,280.55,96,100,2.15,RU,1696180218
538,cidade velha,14.9167,-23.6167,301.71,70,58,5.23,CV,1696180218
539,hovd,48.0056,91.6419,281.34,51,27,2.68,MN,1696180218
540,mahibadhoo,3.7833,72.9667,300.84,78,100,3.74,MV,1696180218
541,bam,29.106,58.357,299.15,15,1,1.54,IR,1696180219
542,shimo-furano,43.35,142.3833,284.63,94,52,1.51,JP,1696180219
543,jalqani,12.4486,34.2186,302.96,56,55,1.66,SD,1696180219
544,kaindy,42.8247,73.6759,289.55,37,98,1.99,KG,1696180219
545,turochak,52.2576,87.1224,279.98,94,96,0.81,RU,1696180219
546,jeremoabo,-10.075,-38.4808,307.4,22,5,3.91,BR,1696180220
547,isfahan,32.6572,51.6776,292.95,17,1,2.39,IR,1696180220
548,rikaze,29.25,88.8833,286.63,48,82,2.81,CN,1696180220
549,mangai,-4.05,19.5333,298.49,77,44,0.96,CD,1696180220
550,tluszcz,52.4306,21.4356,289.72,57,74,2.17,PL,1696180221
551,villanueva,15.3167,-88.0,303.7,62,20,1.03,HN,1696180221
552,kolonia,50.9333,6.95,297.51,62,0,3.09,DE,1696180221
553,mae chan,20.1467,99.8526,296.58,99,98,0.5,TH,1696180221
554,viitasaari,63.0667,25.8667,282.23,94,97,4.05,FI,1696180221
555,deir ez-zor,35.3359,40.1408,300.15,37,100,2.47,SY,1696180222
